{
"type": "FeatureCollection",
"name": "votos_municipios",
"crs": { "type": "name", "properties": { "name": "urn:ogc:def:crs:EPSG::4674" } },
"features": [
{ "type": "Feature", "properties": { "NR_VOTAVEL": 16111, "NM_VOTAVEL": "VOTOS TESTE", "NM_MUNICIPIO": "ABAIARA", "TOTAL_VOTOS_MUNICIPIO": 33, "MUNICIPIO": "Abaiara", "LATITUDE": -7.3599, "LONGITUDE": -39.0489 }, "geometry": { "type": "Point", "coordinates": [ -39.0489, -7.3599 ] } },
{ "type": "Feature", "properties": { "NR_VOTAVEL": 16111, "NM_VOTAVEL": "VOTOS TESTE", "NM_MUNICIPIO": "ACARAPE", "TOTAL_VOTOS_MUNICIPIO": 114, "MUNICIPIO": "Acarape", "LATITUDE": -4.2241, "LONGITUDE": -38.7059 }, "geometry": { "type": "Point", "coordinates": [ -38.7059, -4.2241 ] } },
{ "type": "Feature", "properties": { "NR_VOTAVEL": 16111, "NM_VOTAVEL": "VOTOS TESTE", "NM_MUNICIPIO": "ACARAÚ", "TOTAL_VOTOS_MUNICIPIO": 5, "MUNICIPIO": "Acaraú", "LATITUDE": -2.8846, "LONGITUDE": -40.1196 }, "geometry": { "type": "Point", "coordinates": [ -40.1196, -2.8846 ] } },
{ "type": "Feature", "properties": { "NR_VOTAVEL": 16111, "NM_VOTAVEL": "VOTOS TESTE", "NM_MUNICIPIO": "ACOPIARA", "TOTAL_VOTOS_MUNICIPIO": 221, "MUNICIPIO": "Acopiara", "LATITUDE": -6.0953, "LONGITUDE": -39.4551 }, "geometry": { "type": "Point", "coordinates": [ -39.4551, -6.0953 ] } },
{ "type": "Feature", "properties": { "NR_VOTAVEL": 16111, "NM_VOTAVEL": "VOTOS TESTE", "NM_MUNICIPIO": "AIUABA", "TOTAL_VOTOS_MUNICIPIO": 19, "MUNICIPIO": "Aiuaba", "LATITUDE": -6.5729, "LONGITUDE": -40.1235 }, "geometry": { "type": "Point", "coordinates": [ -40.1235, -6.5729 ] } },
{ "type": "Feature", "properties": { "NR_VOTAVEL": 16111, "NM_VOTAVEL": "VOTOS TESTE", "NM_MUNICIPIO": "ALCÂNTARAS", "TOTAL_VOTOS_MUNICIPIO": 4, "MUNICIPIO": "Alcântaras", "LATITUDE": -3.5869, "LONGITUDE": -40.5455 }, "geometry": { "type": "Point", "coordinates": [ -40.5455, -3.5869 ] } },
{ "type": "Feature", "properties": { "NR_VOTAVEL": 16111, "NM_VOTAVEL": "VOTOS TESTE", "NM_MUNICIPIO": "ALTANEIRA", "TOTAL_VOTOS_MUNICIPIO": 1370, "MUNICIPIO": "Altaneira", "LATITUDE": -7.0029, "LONGITUDE": -39.7395 }, "geometry": { "type": "Point", "coordinates": [ -39.7395, -7.0029 ] } },
{ "type": "Feature", "properties": { "NR_VOTAVEL": 16111, "NM_VOTAVEL": "VOTOS TESTE", "NM_MUNICIPIO": "ALTO SANTO", "TOTAL_VOTOS_MUNICIPIO": 44, "MUNICIPIO": "Alto Santo", "LATITUDE": -5.5212, "LONGITUDE": -38.2744 }, "geometry": { "type": "Point", "coordinates": [ -38.2744, -5.5212 ] } },
{ "type": "Feature", "properties": { "NR_VOTAVEL": 16111, "NM_VOTAVEL": "VOTOS TESTE", "NM_MUNICIPIO": "AMONTADA", "TOTAL_VOTOS_MUNICIPIO": 15, "MUNICIPIO": "Amontada", "LATITUDE": -3.3633, "LONGITUDE": -39.8282 }, "geometry": { "type": "Point", "coordinates": [ -39.8282, -3.3633 ] } },
{ "type": "Feature", "properties": { "NR_VOTAVEL": 16111, "NM_VOTAVEL": "VOTOS TESTE", "NM_MUNICIPIO": "ANTONINA DO NORTE", "TOTAL_VOTOS_MUNICIPIO": 1147, "MUNICIPIO": "Antonina do Norte", "LATITUDE": -6.7759, "LONGITUDE": -39.9883 }, "geometry": { "type": "Point", "coordinates": [ -39.9883, -6.7759 ] } },
{ "type": "Feature", "properties": { "NR_VOTAVEL": 16111, "NM_VOTAVEL": "VOTOS TESTE", "NM_MUNICIPIO": "APUIARÉS", "TOTAL_VOTOS_MUNICIPIO": 24, "MUNICIPIO": "Apuiarés", "LATITUDE": -3.9477, "LONGITUDE": -39.4329 }, "geometry": { "type": "Point", "coordinates": [ -39.4329, -3.9477 ] } },
{ "type": "Feature", "properties": { "NR_VOTAVEL": 16111, "NM_VOTAVEL": "VOTOS TESTE", "NM_MUNICIPIO": "AQUIRAZ", "TOTAL_VOTOS_MUNICIPIO": 196, "MUNICIPIO": "Aquiraz", "LATITUDE": -3.9041, "LONGITUDE": -38.3885 }, "geometry": { "type": "Point", "coordinates": [ -38.3885, -3.9041 ] } },
{ "type": "Feature", "properties": { "NR_VOTAVEL": 16111, "NM_VOTAVEL": "VOTOS TESTE", "NM_MUNICIPIO": "ARACATI", "TOTAL_VOTOS_MUNICIPIO": 419, "MUNICIPIO": "Aracati", "LATITUDE": -4.5679, "LONGITUDE": -37.7711 }, "geometry": { "type": "Point", "coordinates": [ -37.7711, -4.5679 ] } },
{ "type": "Feature", "properties": { "NR_VOTAVEL": 16111, "NM_VOTAVEL": "VOTOS TESTE", "NM_MUNICIPIO": "ARACOIABA", "TOTAL_VOTOS_MUNICIPIO": 1, "MUNICIPIO": "Aracoiaba", "LATITUDE": -4.3718, "LONGITUDE": -38.8101 }, "geometry": { "type": "Point", "coordinates": [ -38.8101, -4.3718 ] } },
{ "type": "Feature", "properties": { "NR_VOTAVEL": 16111, "NM_VOTAVEL": "VOTOS TESTE", "NM_MUNICIPIO": "ARARENDÁ", "TOTAL_VOTOS_MUNICIPIO": 163, "MUNICIPIO": "Ararendá", "LATITUDE": -4.7526, "LONGITUDE": -40.8339 }, "geometry": { "type": "Point", "coordinates": [ -40.8339, -4.7526 ] } },
{ "type": "Feature", "properties": { "NR_VOTAVEL": 16111, "NM_VOTAVEL": "VOTOS TESTE", "NM_MUNICIPIO": "ARARIPE", "TOTAL_VOTOS_MUNICIPIO": 23, "MUNICIPIO": "Araripe", "LATITUDE": -7.2126, "LONGITUDE": -40.1363 }, "geometry": { "type": "Point", "coordinates": [ -40.1363, -7.2126 ] } },
{ "type": "Feature", "properties": { "NR_VOTAVEL": 16111, "NM_VOTAVEL": "VOTOS TESTE", "NM_MUNICIPIO": "ARATUBA", "TOTAL_VOTOS_MUNICIPIO": 183, "MUNICIPIO": "Aratuba", "LATITUDE": -4.4189, "LONGITUDE": -39.0459 }, "geometry": { "type": "Point", "coordinates": [ -39.0459, -4.4189 ] } },
{ "type": "Feature", "properties": { "NR_VOTAVEL": 16111, "NM_VOTAVEL": "VOTOS TESTE", "NM_MUNICIPIO": "ARNEIROZ", "TOTAL_VOTOS_MUNICIPIO": 35, "MUNICIPIO": "Arneiroz", "LATITUDE": -6.3249, "LONGITUDE": -40.1609 }, "geometry": { "type": "Point", "coordinates": [ -40.1609, -6.3249 ] } },
{ "type": "Feature", "properties": { "NR_VOTAVEL": 16111, "NM_VOTAVEL": "VOTOS TESTE", "NM_MUNICIPIO": "ASSARÉ", "TOTAL_VOTOS_MUNICIPIO": 6072, "MUNICIPIO": "Assaré", "LATITUDE": -6.8759, "LONGITUDE": -39.8749 }, "geometry": { "type": "Point", "coordinates": [ -39.8749, -6.8759 ] } },
{ "type": "Feature", "properties": { "NR_VOTAVEL": 16111, "NM_VOTAVEL": "VOTOS TESTE", "NM_MUNICIPIO": "AURORA", "TOTAL_VOTOS_MUNICIPIO": 223, "MUNICIPIO": "Aurora", "LATITUDE": -6.9431, "LONGITUDE": -38.9681 }, "geometry": { "type": "Point", "coordinates": [ -38.9681, -6.9431 ] } },
{ "type": "Feature", "properties": { "NR_VOTAVEL": 16111, "NM_VOTAVEL": "VOTOS TESTE", "NM_MUNICIPIO": "BAIXIO", "TOTAL_VOTOS_MUNICIPIO": 18, "MUNICIPIO": "Baixio", "LATITUDE": -6.7288, "LONGITUDE": -38.7166 }, "geometry": { "type": "Point", "coordinates": [ -38.7166, -6.7288 ] } },
{ "type": "Feature", "properties": { "NR_VOTAVEL": 16111, "NM_VOTAVEL": "VOTOS TESTE", "NM_MUNICIPIO": "BANABUIÚ", "TOTAL_VOTOS_MUNICIPIO": 6, "MUNICIPIO": "Banabuiú", "LATITUDE": -5.3061, "LONGITUDE": -38.9202 }, "geometry": { "type": "Point", "coordinates": [ -38.9202, -5.3061 ] } },
{ "type": "Feature", "properties": { "NR_VOTAVEL": 16111, "NM_VOTAVEL": "VOTOS TESTE", "NM_MUNICIPIO": "BARBALHA", "TOTAL_VOTOS_MUNICIPIO": 2401, "MUNICIPIO": "Barbalha", "LATITUDE": -7.3106, "LONGITUDE": -39.3039 }, "geometry": { "type": "Point", "coordinates": [ -39.3039, -7.3106 ] } },
{ "type": "Feature", "properties": { "NR_VOTAVEL": 16111, "NM_VOTAVEL": "VOTOS TESTE", "NM_MUNICIPIO": "BARREIRA", "TOTAL_VOTOS_MUNICIPIO": 191, "MUNICIPIO": "Barreira", "LATITUDE": -4.2864, "LONGITUDE": -38.6418 }, "geometry": { "type": "Point", "coordinates": [ -38.6418, -4.2864 ] } },
{ "type": "Feature", "properties": { "NR_VOTAVEL": 16111, "NM_VOTAVEL": "VOTOS TESTE", "NM_MUNICIPIO": "BARRO", "TOTAL_VOTOS_MUNICIPIO": 1, "MUNICIPIO": "Barro", "LATITUDE": -7.1777, "LONGITUDE": -38.7798 }, "geometry": { "type": "Point", "coordinates": [ -38.7798, -7.1777 ] } },
{ "type": "Feature", "properties": { "NR_VOTAVEL": 16111, "NM_VOTAVEL": "VOTOS TESTE", "NM_MUNICIPIO": "BARROQUINHA", "TOTAL_VOTOS_MUNICIPIO": 93, "MUNICIPIO": "Barroquinha", "LATITUDE": -3.0195, "LONGITUDE": -41.1372 }, "geometry": { "type": "Point", "coordinates": [ -41.1372, -3.0195 ] } },
{ "type": "Feature", "properties": { "NR_VOTAVEL": 16111, "NM_VOTAVEL": "VOTOS TESTE", "NM_MUNICIPIO": "BATURITÉ", "TOTAL_VOTOS_MUNICIPIO": 392, "MUNICIPIO": "Baturité", "LATITUDE": -4.3323, "LONGITUDE": -38.8796 }, "geometry": { "type": "Point", "coordinates": [ -38.8796, -4.3323 ] } },
{ "type": "Feature", "properties": { "NR_VOTAVEL": 16111, "NM_VOTAVEL": "VOTOS TESTE", "NM_MUNICIPIO": "BEBERIBE", "TOTAL_VOTOS_MUNICIPIO": 30, "MUNICIPIO": "Beberibe", "LATITUDE": -4.1799, "LONGITUDE": -38.1296 }, "geometry": { "type": "Point", "coordinates": [ -38.1296, -4.1799 ] } },
{ "type": "Feature", "properties": { "NR_VOTAVEL": 16111, "NM_VOTAVEL": "VOTOS TESTE", "NM_MUNICIPIO": "BELA CRUZ", "TOTAL_VOTOS_MUNICIPIO": 12, "MUNICIPIO": "Bela Cruz", "LATITUDE": -3.0559, "LONGITUDE": -40.1695 }, "geometry": { "type": "Point", "coordinates": [ -40.1695, -3.0559 ] } },
{ "type": "Feature", "properties": { "NR_VOTAVEL": 16111, "NM_VOTAVEL": "VOTOS TESTE", "NM_MUNICIPIO": "BOA VIAGEM", "TOTAL_VOTOS_MUNICIPIO": 5, "MUNICIPIO": "Boa Viagem", "LATITUDE": -5.1251, "LONGITUDE": -39.7311 }, "geometry": { "type": "Point", "coordinates": [ -39.7311, -5.1251 ] } },
{ "type": "Feature", "properties": { "NR_VOTAVEL": 16111, "NM_VOTAVEL": "VOTOS TESTE", "NM_MUNICIPIO": "BREJO SANTO", "TOTAL_VOTOS_MUNICIPIO": 115, "MUNICIPIO": "Brejo Santo", "LATITUDE": -7.4939, "LONGITUDE": -38.9844 }, "geometry": { "type": "Point", "coordinates": [ -38.9844, -7.4939 ] } },
{ "type": "Feature", "properties": { "NR_VOTAVEL": 16111, "NM_VOTAVEL": "VOTOS TESTE", "NM_MUNICIPIO": "CAMOCIM", "TOTAL_VOTOS_MUNICIPIO": 164, "MUNICIPIO": "Camocim", "LATITUDE": -2.8971, "LONGITUDE": -40.8448 }, "geometry": { "type": "Point", "coordinates": [ -40.8448, -2.8971 ] } },
{ "type": "Feature", "properties": { "NR_VOTAVEL": 16111, "NM_VOTAVEL": "VOTOS TESTE", "NM_MUNICIPIO": "CAMPOS SALES", "TOTAL_VOTOS_MUNICIPIO": 11, "MUNICIPIO": "Campos Sales", "LATITUDE": -7.0747, "LONGITUDE": -40.3749 }, "geometry": { "type": "Point", "coordinates": [ -40.3749, -7.0747 ] } },
{ "type": "Feature", "properties": { "NR_VOTAVEL": 16111, "NM_VOTAVEL": "VOTOS TESTE", "NM_MUNICIPIO": "CANINDÉ", "TOTAL_VOTOS_MUNICIPIO": 424, "MUNICIPIO": "Canindé", "LATITUDE": -4.3591, "LONGITUDE": -39.3146 }, "geometry": { "type": "Point", "coordinates": [ -39.3146, -4.3591 ] } },
{ "type": "Feature", "properties": { "NR_VOTAVEL": 16111, "NM_VOTAVEL": "VOTOS TESTE", "NM_MUNICIPIO": "CAPISTRANO", "TOTAL_VOTOS_MUNICIPIO": 99, "MUNICIPIO": "Capistrano", "LATITUDE": -4.4689, "LONGITUDE": -38.9001 }, "geometry": { "type": "Point", "coordinates": [ -38.9001, -4.4689 ] } },
{ "type": "Feature", "properties": { "NR_VOTAVEL": 16111, "NM_VOTAVEL": "VOTOS TESTE", "NM_MUNICIPIO": "CARIDADE", "TOTAL_VOTOS_MUNICIPIO": 133, "MUNICIPIO": "Caridade", "LATITUDE": -4.2322, "LONGITUDE": -39.1937 }, "geometry": { "type": "Point", "coordinates": [ -39.1937, -4.2322 ] } },
{ "type": "Feature", "properties": { "NR_VOTAVEL": 16111, "NM_VOTAVEL": "VOTOS TESTE", "NM_MUNICIPIO": "CARIRIAÇU", "TOTAL_VOTOS_MUNICIPIO": 31, "MUNICIPIO": "Caririaçu", "LATITUDE": -7.0415, "LONGITUDE": -39.2844 }, "geometry": { "type": "Point", "coordinates": [ -39.2844, -7.0415 ] } },
{ "type": "Feature", "properties": { "NR_VOTAVEL": 16111, "NM_VOTAVEL": "VOTOS TESTE", "NM_MUNICIPIO": "CARIRÉ", "TOTAL_VOTOS_MUNICIPIO": 3152, "MUNICIPIO": "Cariré", "LATITUDE": -3.9498, "LONGITUDE": -40.4751 }, "geometry": { "type": "Point", "coordinates": [ -40.4751, -3.9498 ] } },
{ "type": "Feature", "properties": { "NR_VOTAVEL": 16111, "NM_VOTAVEL": "VOTOS TESTE", "NM_MUNICIPIO": "CARIÚS", "TOTAL_VOTOS_MUNICIPIO": 3628, "MUNICIPIO": "Cariús", "LATITUDE": -6.5359, "LONGITUDE": -39.4985 }, "geometry": { "type": "Point", "coordinates": [ -39.4985, -6.5359 ] } },
{ "type": "Feature", "properties": { "NR_VOTAVEL": 16111, "NM_VOTAVEL": "VOTOS TESTE", "NM_MUNICIPIO": "CARNAUBAL", "TOTAL_VOTOS_MUNICIPIO": 17, "MUNICIPIO": "Carnaubal", "LATITUDE": -4.1654, "LONGITUDE": -40.9429 }, "geometry": { "type": "Point", "coordinates": [ -40.9429, -4.1654 ] } },
{ "type": "Feature", "properties": { "NR_VOTAVEL": 16111, "NM_VOTAVEL": "VOTOS TESTE", "NM_MUNICIPIO": "CASCAVEL", "TOTAL_VOTOS_MUNICIPIO": 194, "MUNICIPIO": "Cascavel", "LATITUDE": -4.1301, "LONGITUDE": -38.2373 }, "geometry": { "type": "Point", "coordinates": [ -38.2373, -4.1301 ] } },
{ "type": "Feature", "properties": { "NR_VOTAVEL": 16111, "NM_VOTAVEL": "VOTOS TESTE", "NM_MUNICIPIO": "CATARINA", "TOTAL_VOTOS_MUNICIPIO": 44, "MUNICIPIO": "Catarina", "LATITUDE": -6.1329, "LONGITUDE": -39.8788 }, "geometry": { "type": "Point", "coordinates": [ -39.8788, -6.1329 ] } },
{ "type": "Feature", "properties": { "NR_VOTAVEL": 16111, "NM_VOTAVEL": "VOTOS TESTE", "NM_MUNICIPIO": "CATUNDA", "TOTAL_VOTOS_MUNICIPIO": 2006, "MUNICIPIO": "Catunda", "LATITUDE": -4.6495, "LONGITUDE": -40.2008 }, "geometry": { "type": "Point", "coordinates": [ -40.2008, -4.6495 ] } },
{ "type": "Feature", "properties": { "NR_VOTAVEL": 16111, "NM_VOTAVEL": "VOTOS TESTE", "NM_MUNICIPIO": "CAUCAIA", "TOTAL_VOTOS_MUNICIPIO": 418, "MUNICIPIO": "Caucaia", "LATITUDE": -3.7341, "LONGITUDE": -38.6562 }, "geometry": { "type": "Point", "coordinates": [ -38.6562, -3.7341 ] } },
{ "type": "Feature", "properties": { "NR_VOTAVEL": 16111, "NM_VOTAVEL": "VOTOS TESTE", "NM_MUNICIPIO": "CEDRO", "TOTAL_VOTOS_MUNICIPIO": 110, "MUNICIPIO": "Cedro", "LATITUDE": -6.6089, "LONGITUDE": -39.0639 }, "geometry": { "type": "Point", "coordinates": [ -39.0639, -6.6089 ] } },
{ "type": "Feature", "properties": { "NR_VOTAVEL": 16111, "NM_VOTAVEL": "VOTOS TESTE", "NM_MUNICIPIO": "CHAVAL", "TOTAL_VOTOS_MUNICIPIO": 17, "MUNICIPIO": "Chaval", "LATITUDE": -3.0373, "LONGITUDE": -41.2421 }, "geometry": { "type": "Point", "coordinates": [ -41.2421, -3.0373 ] } },
{ "type": "Feature", "properties": { "NR_VOTAVEL": 16111, "NM_VOTAVEL": "VOTOS TESTE", "NM_MUNICIPIO": "CHOROZINHO", "TOTAL_VOTOS_MUNICIPIO": 158, "MUNICIPIO": "Chorozinho", "LATITUDE": -4.3002, "LONGITUDE": -38.4982 }, "geometry": { "type": "Point", "coordinates": [ -38.4982, -4.3002 ] } },
{ "type": "Feature", "properties": { "NR_VOTAVEL": 16111, "NM_VOTAVEL": "VOTOS TESTE", "NM_MUNICIPIO": "CHORÓ", "TOTAL_VOTOS_MUNICIPIO": 13, "MUNICIPIO": "Choró", "LATITUDE": -4.8451, "LONGITUDE": -39.1392 }, "geometry": { "type": "Point", "coordinates": [ -39.1392, -4.8451 ] } },
{ "type": "Feature", "properties": { "NR_VOTAVEL": 16111, "NM_VOTAVEL": "VOTOS TESTE", "NM_MUNICIPIO": "COREAÚ", "TOTAL_VOTOS_MUNICIPIO": 156, "MUNICIPIO": "Coreaú", "LATITUDE": -3.5512, "LONGITUDE": -40.6559 }, "geometry": { "type": "Point", "coordinates": [ -40.6559, -3.5512 ] } },
{ "type": "Feature", "properties": { "NR_VOTAVEL": 16111, "NM_VOTAVEL": "VOTOS TESTE", "NM_MUNICIPIO": "CRATEÚS", "TOTAL_VOTOS_MUNICIPIO": 5, "MUNICIPIO": "Crateús", "LATITUDE": -5.1757, "LONGITUDE": -40.6712 }, "geometry": { "type": "Point", "coordinates": [ -40.6712, -5.1757 ] } },
{ "type": "Feature", "properties": { "NR_VOTAVEL": 16111, "NM_VOTAVEL": "VOTOS TESTE", "NM_MUNICIPIO": "CRATO", "TOTAL_VOTOS_MUNICIPIO": 238, "MUNICIPIO": "Crato", "LATITUDE": -7.2315, "LONGITUDE": -39.4111 }, "geometry": { "type": "Point", "coordinates": [ -39.4111, -7.2315 ] } },
{ "type": "Feature", "properties": { "NR_VOTAVEL": 16111, "NM_VOTAVEL": "VOTOS TESTE", "NM_MUNICIPIO": "CROATÁ", "TOTAL_VOTOS_MUNICIPIO": 81, "MUNICIPIO": "Croatá", "LATITUDE": -4.4161, "LONGITUDE": -40.9087 }, "geometry": { "type": "Point", "coordinates": [ -40.9087, -4.4161 ] } },
{ "type": "Feature", "properties": { "NR_VOTAVEL": 16111, "NM_VOTAVEL": "VOTOS TESTE", "NM_MUNICIPIO": "CRUZ", "TOTAL_VOTOS_MUNICIPIO": 2840, "MUNICIPIO": "Cruz", "LATITUDE": -2.9225, "LONGITUDE": -40.1747 }, "geometry": { "type": "Point", "coordinates": [ -40.1747, -2.9225 ] } },
{ "type": "Feature", "properties": { "NR_VOTAVEL": 16111, "NM_VOTAVEL": "VOTOS TESTE", "NM_MUNICIPIO": "DEPUTADO IRAPUAN PINHEIRO", "TOTAL_VOTOS_MUNICIPIO": 289, "MUNICIPIO": "Deputado Irapuan Pinheiro", "LATITUDE": -5.9151, "LONGITUDE": -39.2678 }, "geometry": { "type": "Point", "coordinates": [ -39.2678, -5.9151 ] } },
{ "type": "Feature", "properties": { "NR_VOTAVEL": 16111, "NM_VOTAVEL": "VOTOS TESTE", "NM_MUNICIPIO": "ERERÉ", "TOTAL_VOTOS_MUNICIPIO": 6, "MUNICIPIO": "Ereré", "LATITUDE": -6.0321, "LONGITUDE": -38.3499 }, "geometry": { "type": "Point", "coordinates": [ -38.3499, -6.0321 ] } },
{ "type": "Feature", "properties": { "NR_VOTAVEL": 16111, "NM_VOTAVEL": "VOTOS TESTE", "NM_MUNICIPIO": "EUSÉBIO", "TOTAL_VOTOS_MUNICIPIO": 36, "MUNICIPIO": "Eusébio", "LATITUDE": -3.8611, "LONGITUDE": -38.4703 }, "geometry": { "type": "Point", "coordinates": [ -38.4703, -3.8611 ] } },
{ "type": "Feature", "properties": { "NR_VOTAVEL": 16111, "NM_VOTAVEL": "VOTOS TESTE", "NM_MUNICIPIO": "FARIAS BRITO", "TOTAL_VOTOS_MUNICIPIO": 114, "MUNICIPIO": "Farias Brito", "LATITUDE": -6.9289, "LONGITUDE": -39.5729 }, "geometry": { "type": "Point", "coordinates": [ -39.5729, -6.9289 ] } },
{ "type": "Feature", "properties": { "NR_VOTAVEL": 16111, "NM_VOTAVEL": "VOTOS TESTE", "NM_MUNICIPIO": "FORQUILHA", "TOTAL_VOTOS_MUNICIPIO": 4, "MUNICIPIO": "Forquilha", "LATITUDE": -3.7995, "LONGITUDE": -40.2623 }, "geometry": { "type": "Point", "coordinates": [ -40.2623, -3.7995 ] } },
{ "type": "Feature", "properties": { "NR_VOTAVEL": 16111, "NM_VOTAVEL": "VOTOS TESTE", "NM_MUNICIPIO": "FORTALEZA", "TOTAL_VOTOS_MUNICIPIO": 8015, "MUNICIPIO": "Fortaleza", "LATITUDE": -3.7362, "LONGITUDE": -38.4867 }, "geometry": { "type": "Point", "coordinates": [ -38.4867, -3.7362 ] } },
{ "type": "Feature", "properties": { "NR_VOTAVEL": 16111, "NM_VOTAVEL": "VOTOS TESTE", "NM_MUNICIPIO": "FORTIM", "TOTAL_VOTOS_MUNICIPIO": 335, "MUNICIPIO": "Fortim", "LATITUDE": -4.4519, "LONGITUDE": -37.7975 }, "geometry": { "type": "Point", "coordinates": [ -37.7975, -4.4519 ] } },
{ "type": "Feature", "properties": { "NR_VOTAVEL": 16111, "NM_VOTAVEL": "VOTOS TESTE", "NM_MUNICIPIO": "FRECHEIRINHA", "TOTAL_VOTOS_MUNICIPIO": 91, "MUNICIPIO": "Frecheirinha", "LATITUDE": -3.7609, "LONGITUDE": -40.8166 }, "geometry": { "type": "Point", "coordinates": [ -40.8166, -3.7609 ] } },
{ "type": "Feature", "properties": { "NR_VOTAVEL": 16111, "NM_VOTAVEL": "VOTOS TESTE", "NM_MUNICIPIO": "GENERAL SAMPAIO", "TOTAL_VOTOS_MUNICIPIO": 2614, "MUNICIPIO": "General Sampaio", "LATITUDE": -4.0525, "LONGITUDE": -39.4517 }, "geometry": { "type": "Point", "coordinates": [ -39.4517, -4.0525 ] } },
{ "type": "Feature", "properties": { "NR_VOTAVEL": 16111, "NM_VOTAVEL": "VOTOS TESTE", "NM_MUNICIPIO": "GRANJA", "TOTAL_VOTOS_MUNICIPIO": 31, "MUNICIPIO": "Granja", "LATITUDE": -3.1196, "LONGITUDE": -40.8289 }, "geometry": { "type": "Point", "coordinates": [ -40.8289, -3.1196 ] } },
{ "type": "Feature", "properties": { "NR_VOTAVEL": 16111, "NM_VOTAVEL": "VOTOS TESTE", "NM_MUNICIPIO": "GRANJEIRO", "TOTAL_VOTOS_MUNICIPIO": 647, "MUNICIPIO": "Granjeiro", "LATITUDE": -6.8897, "LONGITUDE": -39.2178 }, "geometry": { "type": "Point", "coordinates": [ -39.2178, -6.8897 ] } },
{ "type": "Feature", "properties": { "NR_VOTAVEL": 16111, "NM_VOTAVEL": "VOTOS TESTE", "NM_MUNICIPIO": "GRAÇA", "TOTAL_VOTOS_MUNICIPIO": 776, "MUNICIPIO": "Graça", "LATITUDE": -4.0465, "LONGITUDE": -40.7533 }, "geometry": { "type": "Point", "coordinates": [ -40.7533, -4.0465 ] } },
{ "type": "Feature", "properties": { "NR_VOTAVEL": 16111, "NM_VOTAVEL": "VOTOS TESTE", "NM_MUNICIPIO": "GROAÍRAS", "TOTAL_VOTOS_MUNICIPIO": 172, "MUNICIPIO": "Groaíras", "LATITUDE": -3.9159, "LONGITUDE": -40.3838 }, "geometry": { "type": "Point", "coordinates": [ -40.3838, -3.9159 ] } },
{ "type": "Feature", "properties": { "NR_VOTAVEL": 16111, "NM_VOTAVEL": "VOTOS TESTE", "NM_MUNICIPIO": "GUAIÚBA", "TOTAL_VOTOS_MUNICIPIO": 192, "MUNICIPIO": "Guaiúba", "LATITUDE": -4.0408, "LONGITUDE": -38.6364 }, "geometry": { "type": "Point", "coordinates": [ -38.6364, -4.0408 ] } },
{ "type": "Feature", "properties": { "NR_VOTAVEL": 16111, "NM_VOTAVEL": "VOTOS TESTE", "NM_MUNICIPIO": "GUARACIABA DO NORTE", "TOTAL_VOTOS_MUNICIPIO": 12, "MUNICIPIO": "Guaraciaba do Norte", "LATITUDE": -4.1633, "LONGITUDE": -40.7504 }, "geometry": { "type": "Point", "coordinates": [ -40.7504, -4.1633 ] } },
{ "type": "Feature", "properties": { "NR_VOTAVEL": 16111, "NM_VOTAVEL": "VOTOS TESTE", "NM_MUNICIPIO": "GUARAMIRANGA", "TOTAL_VOTOS_MUNICIPIO": 44, "MUNICIPIO": "Guaramiranga", "LATITUDE": -4.2619, "LONGITUDE": -38.9326 }, "geometry": { "type": "Point", "coordinates": [ -38.9326, -4.2619 ] } },
{ "type": "Feature", "properties": { "NR_VOTAVEL": 16111, "NM_VOTAVEL": "VOTOS TESTE", "NM_MUNICIPIO": "HIDROLÂNDIA", "TOTAL_VOTOS_MUNICIPIO": 5, "MUNICIPIO": "Hidrolândia", "LATITUDE": -4.4082, "LONGITUDE": -40.4039 }, "geometry": { "type": "Point", "coordinates": [ -40.4039, -4.4082 ] } },
{ "type": "Feature", "properties": { "NR_VOTAVEL": 16111, "NM_VOTAVEL": "VOTOS TESTE", "NM_MUNICIPIO": "HORIZONTE", "TOTAL_VOTOS_MUNICIPIO": 215, "MUNICIPIO": "Horizonte", "LATITUDE": -4.0979, "LONGITUDE": -38.4954 }, "geometry": { "type": "Point", "coordinates": [ -38.4954, -4.0979 ] } },
{ "type": "Feature", "properties": { "NR_VOTAVEL": 16111, "NM_VOTAVEL": "VOTOS TESTE", "NM_MUNICIPIO": "IBARETAMA", "TOTAL_VOTOS_MUNICIPIO": 10, "MUNICIPIO": "Ibaretama", "LATITUDE": -4.8195, "LONGITUDE": -38.8219 }, "geometry": { "type": "Point", "coordinates": [ -38.8219, -4.8195 ] } },
{ "type": "Feature", "properties": { "NR_VOTAVEL": 16111, "NM_VOTAVEL": "VOTOS TESTE", "NM_MUNICIPIO": "IBIAPINA", "TOTAL_VOTOS_MUNICIPIO": 13, "MUNICIPIO": "Ibiapina", "LATITUDE": -3.9228, "LONGITUDE": -40.8902 }, "geometry": { "type": "Point", "coordinates": [ -40.8902, -3.9228 ] } },
{ "type": "Feature", "properties": { "NR_VOTAVEL": 16111, "NM_VOTAVEL": "VOTOS TESTE", "NM_MUNICIPIO": "IBICUITINGA", "TOTAL_VOTOS_MUNICIPIO": 24, "MUNICIPIO": "Ibicuitinga", "LATITUDE": -4.9755, "LONGITUDE": -38.6374 }, "geometry": { "type": "Point", "coordinates": [ -38.6374, -4.9755 ] } },
{ "type": "Feature", "properties": { "NR_VOTAVEL": 16111, "NM_VOTAVEL": "VOTOS TESTE", "NM_MUNICIPIO": "ICAPUÍ", "TOTAL_VOTOS_MUNICIPIO": 130, "MUNICIPIO": "Icapuí", "LATITUDE": -4.7122, "LONGITUDE": -37.3557 }, "geometry": { "type": "Point", "coordinates": [ -37.3557, -4.7122 ] } },
{ "type": "Feature", "properties": { "NR_VOTAVEL": 16111, "NM_VOTAVEL": "VOTOS TESTE", "NM_MUNICIPIO": "ICÓ", "TOTAL_VOTOS_MUNICIPIO": 48, "MUNICIPIO": "Icó", "LATITUDE": -6.4065, "LONGITUDE": -38.8629 }, "geometry": { "type": "Point", "coordinates": [ -38.8629, -6.4065 ] } },
{ "type": "Feature", "properties": { "NR_VOTAVEL": 16111, "NM_VOTAVEL": "VOTOS TESTE", "NM_MUNICIPIO": "IGUATU", "TOTAL_VOTOS_MUNICIPIO": 335, "MUNICIPIO": "Iguatu", "LATITUDE": -6.3632, "LONGITUDE": -39.2988 }, "geometry": { "type": "Point", "coordinates": [ -39.2988, -6.3632 ] } },
{ "type": "Feature", "properties": { "NR_VOTAVEL": 16111, "NM_VOTAVEL": "VOTOS TESTE", "NM_MUNICIPIO": "INDEPENDÊNCIA", "TOTAL_VOTOS_MUNICIPIO": 1, "MUNICIPIO": "Independência", "LATITUDE": -5.3959, "LONGITUDE": -40.3109 }, "geometry": { "type": "Point", "coordinates": [ -40.3109, -5.3959 ] } },
{ "type": "Feature", "properties": { "NR_VOTAVEL": 16111, "NM_VOTAVEL": "VOTOS TESTE", "NM_MUNICIPIO": "IPAPORANGA", "TOTAL_VOTOS_MUNICIPIO": 347, "MUNICIPIO": "Ipaporanga", "LATITUDE": -4.9007, "LONGITUDE": -40.7597 }, "geometry": { "type": "Point", "coordinates": [ -40.7597, -4.9007 ] } },
{ "type": "Feature", "properties": { "NR_VOTAVEL": 16111, "NM_VOTAVEL": "VOTOS TESTE", "NM_MUNICIPIO": "IPAUMIRIM", "TOTAL_VOTOS_MUNICIPIO": 14, "MUNICIPIO": "Ipaumirim", "LATITUDE": -6.7896, "LONGITUDE": -38.7189 }, "geometry": { "type": "Point", "coordinates": [ -38.7189, -6.7896 ] } },
{ "type": "Feature", "properties": { "NR_VOTAVEL": 16111, "NM_VOTAVEL": "VOTOS TESTE", "NM_MUNICIPIO": "IPU", "TOTAL_VOTOS_MUNICIPIO": 93, "MUNICIPIO": "Ipu", "LATITUDE": -4.3256, "LONGITUDE": -40.7112 }, "geometry": { "type": "Point", "coordinates": [ -40.7112, -4.3256 ] } },
{ "type": "Feature", "properties": { "NR_VOTAVEL": 16111, "NM_VOTAVEL": "VOTOS TESTE", "NM_MUNICIPIO": "IPUEIRAS", "TOTAL_VOTOS_MUNICIPIO": 7, "MUNICIPIO": "Ipueiras", "LATITUDE": -4.5424, "LONGITUDE": -40.7192 }, "geometry": { "type": "Point", "coordinates": [ -40.7192, -4.5424 ] } },
{ "type": "Feature", "properties": { "NR_VOTAVEL": 16111, "NM_VOTAVEL": "VOTOS TESTE", "NM_MUNICIPIO": "IRACEMA", "TOTAL_VOTOS_MUNICIPIO": 666, "MUNICIPIO": "Iracema", "LATITUDE": -5.8107, "LONGITUDE": -38.3039 }, "geometry": { "type": "Point", "coordinates": [ -38.3039, -5.8107 ] } },
{ "type": "Feature", "properties": { "NR_VOTAVEL": 16111, "NM_VOTAVEL": "VOTOS TESTE", "NM_MUNICIPIO": "IRAUÇUBA", "TOTAL_VOTOS_MUNICIPIO": 119, "MUNICIPIO": "Irauçuba", "LATITUDE": -3.7475, "LONGITUDE": -39.7847 }, "geometry": { "type": "Point", "coordinates": [ -39.7847, -3.7475 ] } },
{ "type": "Feature", "properties": { "NR_VOTAVEL": 16111, "NM_VOTAVEL": "VOTOS TESTE", "NM_MUNICIPIO": "ITAITINGA", "TOTAL_VOTOS_MUNICIPIO": 150, "MUNICIPIO": "Itaitinga", "LATITUDE": -3.9717, "LONGITUDE": -38.5285 }, "geometry": { "type": "Point", "coordinates": [ -38.5285, -3.9717 ] } },
{ "type": "Feature", "properties": { "NR_VOTAVEL": 16111, "NM_VOTAVEL": "VOTOS TESTE", "NM_MUNICIPIO": "ITAIÇABA", "TOTAL_VOTOS_MUNICIPIO": 313, "MUNICIPIO": "Itaiçaba", "LATITUDE": -4.6781, "LONGITUDE": -37.8226 }, "geometry": { "type": "Point", "coordinates": [ -37.8226, -4.6781 ] } },
{ "type": "Feature", "properties": { "NR_VOTAVEL": 16111, "NM_VOTAVEL": "VOTOS TESTE", "NM_MUNICIPIO": "ITAPAJÉ", "TOTAL_VOTOS_MUNICIPIO": 392, "MUNICIPIO": "Itapajé", "LATITUDE": -3.6856, "LONGITUDE": -39.5856 }, "geometry": { "type": "Point", "coordinates": [ -39.5856, -3.6856 ] } },
{ "type": "Feature", "properties": { "NR_VOTAVEL": 16111, "NM_VOTAVEL": "VOTOS TESTE", "NM_MUNICIPIO": "ITAPIPOCA", "TOTAL_VOTOS_MUNICIPIO": 122, "MUNICIPIO": "Itapipoca", "LATITUDE": -3.4946, "LONGITUDE": -39.5792 }, "geometry": { "type": "Point", "coordinates": [ -39.5792, -3.4946 ] } },
{ "type": "Feature", "properties": { "NR_VOTAVEL": 16111, "NM_VOTAVEL": "VOTOS TESTE", "NM_MUNICIPIO": "ITAPIÚNA", "TOTAL_VOTOS_MUNICIPIO": 108, "MUNICIPIO": "Itapiúna", "LATITUDE": -4.5638, "LONGITUDE": -38.9228 }, "geometry": { "type": "Point", "coordinates": [ -38.9228, -4.5638 ] } },
{ "type": "Feature", "properties": { "NR_VOTAVEL": 16111, "NM_VOTAVEL": "VOTOS TESTE", "NM_MUNICIPIO": "ITAREMA", "TOTAL_VOTOS_MUNICIPIO": 164, "MUNICIPIO": "Itarema", "LATITUDE": -2.9221, "LONGITUDE": -39.9141 }, "geometry": { "type": "Point", "coordinates": [ -39.9141, -2.9221 ] } },
{ "type": "Feature", "properties": { "NR_VOTAVEL": 16111, "NM_VOTAVEL": "VOTOS TESTE", "NM_MUNICIPIO": "ITATIRA", "TOTAL_VOTOS_MUNICIPIO": 18, "MUNICIPIO": "Itatira", "LATITUDE": -4.5291, "LONGITUDE": -39.6222 }, "geometry": { "type": "Point", "coordinates": [ -39.6222, -4.5291 ] } },
{ "type": "Feature", "properties": { "NR_VOTAVEL": 16111, "NM_VOTAVEL": "VOTOS TESTE", "NM_MUNICIPIO": "JAGUARETAMA", "TOTAL_VOTOS_MUNICIPIO": 187, "MUNICIPIO": "Jaguaretama", "LATITUDE": -5.6129, "LONGITUDE": -38.7665 }, "geometry": { "type": "Point", "coordinates": [ -38.7665, -5.6129 ] } },
{ "type": "Feature", "properties": { "NR_VOTAVEL": 16111, "NM_VOTAVEL": "VOTOS TESTE", "NM_MUNICIPIO": "JAGUARIBARA", "TOTAL_VOTOS_MUNICIPIO": 42, "MUNICIPIO": "Jaguaribara", "LATITUDE": -5.4578, "LONGITUDE": -38.4658 }, "geometry": { "type": "Point", "coordinates": [ -38.4658, -5.4578 ] } },
{ "type": "Feature", "properties": { "NR_VOTAVEL": 16111, "NM_VOTAVEL": "VOTOS TESTE", "NM_MUNICIPIO": "JAGUARIBE", "TOTAL_VOTOS_MUNICIPIO": 257, "MUNICIPIO": "Jaguaribe", "LATITUDE": -5.8877, "LONGITUDE": -38.6229 }, "geometry": { "type": "Point", "coordinates": [ -38.6229, -5.8877 ] } },
{ "type": "Feature", "properties": { "NR_VOTAVEL": 16111, "NM_VOTAVEL": "VOTOS TESTE", "NM_MUNICIPIO": "JAGUARUANA", "TOTAL_VOTOS_MUNICIPIO": 39, "MUNICIPIO": "Jaguaruana", "LATITUDE": -4.8375, "LONGITUDE": -37.7829 }, "geometry": { "type": "Point", "coordinates": [ -37.7829, -4.8375 ] } },
{ "type": "Feature", "properties": { "NR_VOTAVEL": 16111, "NM_VOTAVEL": "VOTOS TESTE", "NM_MUNICIPIO": "JARDIM", "TOTAL_VOTOS_MUNICIPIO": 4, "MUNICIPIO": "Jardim", "LATITUDE": -7.5848, "LONGITUDE": -39.2814 }, "geometry": { "type": "Point", "coordinates": [ -39.2814, -7.5848 ] } },
{ "type": "Feature", "properties": { "NR_VOTAVEL": 16111, "NM_VOTAVEL": "VOTOS TESTE", "NM_MUNICIPIO": "JATI", "TOTAL_VOTOS_MUNICIPIO": 20, "MUNICIPIO": "Jati", "LATITUDE": -7.6872, "LONGITUDE": -39.0062 }, "geometry": { "type": "Point", "coordinates": [ -39.0062, -7.6872 ] } },
{ "type": "Feature", "properties": { "NR_VOTAVEL": 16111, "NM_VOTAVEL": "VOTOS TESTE", "NM_MUNICIPIO": "JIJOCA DE JERICOACOARA", "TOTAL_VOTOS_MUNICIPIO": 3231, "MUNICIPIO": "Jijoca de Jericoacoara", "LATITUDE": -2.8989, "LONGITUDE": -40.4516 }, "geometry": { "type": "Point", "coordinates": [ -40.4516, -2.8989 ] } },
{ "type": "Feature", "properties": { "NR_VOTAVEL": 16111, "NM_VOTAVEL": "VOTOS TESTE", "NM_MUNICIPIO": "JUAZEIRO DO NORTE", "TOTAL_VOTOS_MUNICIPIO": 1, "MUNICIPIO": "Juazeiro do Norte", "LATITUDE": -7.2066, "LONGITUDE": -39.3179 }, "geometry": { "type": "Point", "coordinates": [ -39.3179, -7.2066 ] } },
{ "type": "Feature", "properties": { "NR_VOTAVEL": 16111, "NM_VOTAVEL": "VOTOS TESTE", "NM_MUNICIPIO": "JUCÁS", "TOTAL_VOTOS_MUNICIPIO": 51, "MUNICIPIO": "Jucás", "LATITUDE": -6.5221, "LONGITUDE": -39.5254 }, "geometry": { "type": "Point", "coordinates": [ -39.5254, -6.5221 ] } },
{ "type": "Feature", "properties": { "NR_VOTAVEL": 16111, "NM_VOTAVEL": "VOTOS TESTE", "NM_MUNICIPIO": "LAVRAS DA MANGABEIRA", "TOTAL_VOTOS_MUNICIPIO": 35, "MUNICIPIO": "Lavras da Mangabeira", "LATITUDE": -6.7534, "LONGITUDE": -38.9645 }, "geometry": { "type": "Point", "coordinates": [ -38.9645, -6.7534 ] } },
{ "type": "Feature", "properties": { "NR_VOTAVEL": 16111, "NM_VOTAVEL": "VOTOS TESTE", "NM_MUNICIPIO": "LIMOEIRO DO NORTE", "TOTAL_VOTOS_MUNICIPIO": 906, "MUNICIPIO": "Limoeiro do Norte", "LATITUDE": -5.1442, "LONGITUDE": -38.0969 }, "geometry": { "type": "Point", "coordinates": [ -38.0969, -5.1442 ] } },
{ "type": "Feature", "properties": { "NR_VOTAVEL": 16111, "NM_VOTAVEL": "VOTOS TESTE", "NM_MUNICIPIO": "MADALENA", "TOTAL_VOTOS_MUNICIPIO": 110, "MUNICIPIO": "Madalena", "LATITUDE": -4.8508, "LONGITUDE": -39.5729 }, "geometry": { "type": "Point", "coordinates": [ -39.5729, -4.8508 ] } },
{ "type": "Feature", "properties": { "NR_VOTAVEL": 16111, "NM_VOTAVEL": "VOTOS TESTE", "NM_MUNICIPIO": "MARACANAÚ", "TOTAL_VOTOS_MUNICIPIO": 424, "MUNICIPIO": "Maracanaú", "LATITUDE": -3.8775, "LONGITUDE": -38.6255 }, "geometry": { "type": "Point", "coordinates": [ -38.6255, -3.8775 ] } },
{ "type": "Feature", "properties": { "NR_VOTAVEL": 16111, "NM_VOTAVEL": "VOTOS TESTE", "NM_MUNICIPIO": "MARANGUAPE", "TOTAL_VOTOS_MUNICIPIO": 12, "MUNICIPIO": "Maranguape", "LATITUDE": -3.8945, "LONGITUDE": -38.6879 }, "geometry": { "type": "Point", "coordinates": [ -38.6879, -3.8945 ] } },
{ "type": "Feature", "properties": { "NR_VOTAVEL": 16111, "NM_VOTAVEL": "VOTOS TESTE", "NM_MUNICIPIO": "MARCO", "TOTAL_VOTOS_MUNICIPIO": 335, "MUNICIPIO": "Marco", "LATITUDE": -3.1226, "LONGITUDE": -40.1489 }, "geometry": { "type": "Point", "coordinates": [ -40.1489, -3.1226 ] } },
{ "type": "Feature", "properties": { "NR_VOTAVEL": 16111, "NM_VOTAVEL": "VOTOS TESTE", "NM_MUNICIPIO": "MARTINÓPOLE", "TOTAL_VOTOS_MUNICIPIO": 11, "MUNICIPIO": "Martinópole", "LATITUDE": -3.2233, "LONGITUDE": -40.6957 }, "geometry": { "type": "Point", "coordinates": [ -40.6957, -3.2233 ] } },
{ "type": "Feature", "properties": { "NR_VOTAVEL": 16111, "NM_VOTAVEL": "VOTOS TESTE", "NM_MUNICIPIO": "MASSAPÊ", "TOTAL_VOTOS_MUNICIPIO": 773, "MUNICIPIO": "Massapê", "LATITUDE": -3.5238, "LONGITUDE": -40.3421 }, "geometry": { "type": "Point", "coordinates": [ -40.3421, -3.5238 ] } },
{ "type": "Feature", "properties": { "NR_VOTAVEL": 16111, "NM_VOTAVEL": "VOTOS TESTE", "NM_MUNICIPIO": "MAURITI", "TOTAL_VOTOS_MUNICIPIO": 737, "MUNICIPIO": "Mauriti", "LATITUDE": -7.3892, "LONGITUDE": -38.7756 }, "geometry": { "type": "Point", "coordinates": [ -38.7756, -7.3892 ] } },
{ "type": "Feature", "properties": { "NR_VOTAVEL": 16111, "NM_VOTAVEL": "VOTOS TESTE", "NM_MUNICIPIO": "MERUOCA", "TOTAL_VOTOS_MUNICIPIO": 19, "MUNICIPIO": "Meruoca", "LATITUDE": -3.5385, "LONGITUDE": -40.4589 }, "geometry": { "type": "Point", "coordinates": [ -40.4589, -3.5385 ] } },
{ "type": "Feature", "properties": { "NR_VOTAVEL": 16111, "NM_VOTAVEL": "VOTOS TESTE", "NM_MUNICIPIO": "MILAGRES", "TOTAL_VOTOS_MUNICIPIO": 219, "MUNICIPIO": "Milagres", "LATITUDE": -7.3145, "LONGITUDE": -38.9442 }, "geometry": { "type": "Point", "coordinates": [ -38.9442, -7.3145 ] } },
{ "type": "Feature", "properties": { "NR_VOTAVEL": 16111, "NM_VOTAVEL": "VOTOS TESTE", "NM_MUNICIPIO": "MILHÃ", "TOTAL_VOTOS_MUNICIPIO": 21, "MUNICIPIO": "Milhã", "LATITUDE": -5.6756, "LONGITUDE": -39.1948 }, "geometry": { "type": "Point", "coordinates": [ -39.1948, -5.6756 ] } },
{ "type": "Feature", "properties": { "NR_VOTAVEL": 16111, "NM_VOTAVEL": "VOTOS TESTE", "NM_MUNICIPIO": "MIRAÍMA", "TOTAL_VOTOS_MUNICIPIO": 465, "MUNICIPIO": "Miraíma", "LATITUDE": -3.5703, "LONGITUDE": -39.9701 }, "geometry": { "type": "Point", "coordinates": [ -39.9701, -3.5703 ] } },
{ "type": "Feature", "properties": { "NR_VOTAVEL": 16111, "NM_VOTAVEL": "VOTOS TESTE", "NM_MUNICIPIO": "MISSÃO VELHA", "TOTAL_VOTOS_MUNICIPIO": 16, "MUNICIPIO": "Missão Velha", "LATITUDE": -7.2496, "LONGITUDE": -39.1455 }, "geometry": { "type": "Point", "coordinates": [ -39.1455, -7.2496 ] } },
{ "type": "Feature", "properties": { "NR_VOTAVEL": 16111, "NM_VOTAVEL": "VOTOS TESTE", "NM_MUNICIPIO": "MOMBAÇA", "TOTAL_VOTOS_MUNICIPIO": 870, "MUNICIPIO": "Mombaça", "LATITUDE": -5.7451, "LONGITUDE": -39.6294 }, "geometry": { "type": "Point", "coordinates": [ -39.6294, -5.7451 ] } },
{ "type": "Feature", "properties": { "NR_VOTAVEL": 16111, "NM_VOTAVEL": "VOTOS TESTE", "NM_MUNICIPIO": "MONSENHOR TABOSA", "TOTAL_VOTOS_MUNICIPIO": 222, "MUNICIPIO": "Monsenhor Tabosa", "LATITUDE": -4.7909, "LONGITUDE": -40.0621 }, "geometry": { "type": "Point", "coordinates": [ -40.0621, -4.7909 ] } },
{ "type": "Feature", "properties": { "NR_VOTAVEL": 16111, "NM_VOTAVEL": "VOTOS TESTE", "NM_MUNICIPIO": "MORADA NOVA", "TOTAL_VOTOS_MUNICIPIO": 17, "MUNICIPIO": "Morada Nova", "LATITUDE": -5.1079, "LONGITUDE": -38.3727 }, "geometry": { "type": "Point", "coordinates": [ -38.3727, -5.1079 ] } },
{ "type": "Feature", "properties": { "NR_VOTAVEL": 16111, "NM_VOTAVEL": "VOTOS TESTE", "NM_MUNICIPIO": "MORAÚJO", "TOTAL_VOTOS_MUNICIPIO": 91, "MUNICIPIO": "Moraújo", "LATITUDE": -3.4666, "LONGITUDE": -40.6812 }, "geometry": { "type": "Point", "coordinates": [ -40.6812, -3.4666 ] } },
{ "type": "Feature", "properties": { "NR_VOTAVEL": 16111, "NM_VOTAVEL": "VOTOS TESTE", "NM_MUNICIPIO": "MORRINHOS", "TOTAL_VOTOS_MUNICIPIO": 10, "MUNICIPIO": "Morrinhos", "LATITUDE": -3.2292, "LONGITUDE": -40.1261 }, "geometry": { "type": "Point", "coordinates": [ -40.1261, -3.2292 ] } },
{ "type": "Feature", "properties": { "NR_VOTAVEL": 16111, "NM_VOTAVEL": "VOTOS TESTE", "NM_MUNICIPIO": "MUCAMBO", "TOTAL_VOTOS_MUNICIPIO": 150, "MUNICIPIO": "Mucambo", "LATITUDE": -3.9088, "LONGITUDE": -40.7467 }, "geometry": { "type": "Point", "coordinates": [ -40.7467, -3.9088 ] } },
{ "type": "Feature", "properties": { "NR_VOTAVEL": 16111, "NM_VOTAVEL": "VOTOS TESTE", "NM_MUNICIPIO": "MULUNGU", "TOTAL_VOTOS_MUNICIPIO": 62, "MUNICIPIO": "Mulungu", "LATITUDE": -4.3053, "LONGITUDE": -38.9958 }, "geometry": { "type": "Point", "coordinates": [ -38.9958, -4.3053 ] } },
{ "type": "Feature", "properties": { "NR_VOTAVEL": 16111, "NM_VOTAVEL": "VOTOS TESTE", "NM_MUNICIPIO": "NOVA OLINDA", "TOTAL_VOTOS_MUNICIPIO": 26, "MUNICIPIO": "Nova Olinda", "LATITUDE": -7.0932, "LONGITUDE": -39.6791 }, "geometry": { "type": "Point", "coordinates": [ -39.6791, -7.0932 ] } },
{ "type": "Feature", "properties": { "NR_VOTAVEL": 16111, "NM_VOTAVEL": "VOTOS TESTE", "NM_MUNICIPIO": "NOVA RUSSAS", "TOTAL_VOTOS_MUNICIPIO": 5, "MUNICIPIO": "Nova Russas", "LATITUDE": -4.7046, "LONGITUDE": -40.5679 }, "geometry": { "type": "Point", "coordinates": [ -40.5679, -4.7046 ] } },
{ "type": "Feature", "properties": { "NR_VOTAVEL": 16111, "NM_VOTAVEL": "VOTOS TESTE", "NM_MUNICIPIO": "NOVO ORIENTE", "TOTAL_VOTOS_MUNICIPIO": 35, "MUNICIPIO": "Novo Oriente", "LATITUDE": -5.5357, "LONGITUDE": -40.7748 }, "geometry": { "type": "Point", "coordinates": [ -40.7748, -5.5357 ] } },
{ "type": "Feature", "properties": { "NR_VOTAVEL": 16111, "NM_VOTAVEL": "VOTOS TESTE", "NM_MUNICIPIO": "OCARA", "TOTAL_VOTOS_MUNICIPIO": 103, "MUNICIPIO": "Ocara", "LATITUDE": -4.4913, "LONGITUDE": -38.5961 }, "geometry": { "type": "Point", "coordinates": [ -38.5961, -4.4913 ] } },
{ "type": "Feature", "properties": { "NR_VOTAVEL": 16111, "NM_VOTAVEL": "VOTOS TESTE", "NM_MUNICIPIO": "ORÓS", "TOTAL_VOTOS_MUNICIPIO": 30, "MUNICIPIO": "Orós", "LATITUDE": -6.2446, "LONGITUDE": -38.9153 }, "geometry": { "type": "Point", "coordinates": [ -38.9153, -6.2446 ] } },
{ "type": "Feature", "properties": { "NR_VOTAVEL": 16111, "NM_VOTAVEL": "VOTOS TESTE", "NM_MUNICIPIO": "PACAJUS", "TOTAL_VOTOS_MUNICIPIO": 76, "MUNICIPIO": "Pacajus", "LATITUDE": -4.1734, "LONGITUDE": -38.4653 }, "geometry": { "type": "Point", "coordinates": [ -38.4653, -4.1734 ] } },
{ "type": "Feature", "properties": { "NR_VOTAVEL": 16111, "NM_VOTAVEL": "VOTOS TESTE", "NM_MUNICIPIO": "PACATUBA", "TOTAL_VOTOS_MUNICIPIO": 106, "MUNICIPIO": "Pacatuba", "LATITUDE": -3.9843, "LONGITUDE": -38.6195 }, "geometry": { "type": "Point", "coordinates": [ -38.6195, -3.9843 ] } },
{ "type": "Feature", "properties": { "NR_VOTAVEL": 16111, "NM_VOTAVEL": "VOTOS TESTE", "NM_MUNICIPIO": "PACOTI", "TOTAL_VOTOS_MUNICIPIO": 419, "MUNICIPIO": "Pacoti", "LATITUDE": -4.2256, "LONGITUDE": -38.9224 }, "geometry": { "type": "Point", "coordinates": [ -38.9224, -4.2256 ] } },
{ "type": "Feature", "properties": { "NR_VOTAVEL": 16111, "NM_VOTAVEL": "VOTOS TESTE", "NM_MUNICIPIO": "PACUJÁ", "TOTAL_VOTOS_MUNICIPIO": 51, "MUNICIPIO": "Pacujá", "LATITUDE": -3.9802, "LONGITUDE": -40.6982 }, "geometry": { "type": "Point", "coordinates": [ -40.6982, -3.9802 ] } },
{ "type": "Feature", "properties": { "NR_VOTAVEL": 16111, "NM_VOTAVEL": "VOTOS TESTE", "NM_MUNICIPIO": "PALHANO", "TOTAL_VOTOS_MUNICIPIO": 14, "MUNICIPIO": "Palhano", "LATITUDE": -4.7468, "LONGITUDE": -37.9613 }, "geometry": { "type": "Point", "coordinates": [ -37.9613, -4.7468 ] } },
{ "type": "Feature", "properties": { "NR_VOTAVEL": 16111, "NM_VOTAVEL": "VOTOS TESTE", "NM_MUNICIPIO": "PALMÁCIA", "TOTAL_VOTOS_MUNICIPIO": 17, "MUNICIPIO": "Palmácia", "LATITUDE": -4.1477, "LONGITUDE": -38.8462 }, "geometry": { "type": "Point", "coordinates": [ -38.8462, -4.1477 ] } },
{ "type": "Feature", "properties": { "NR_VOTAVEL": 16111, "NM_VOTAVEL": "VOTOS TESTE", "NM_MUNICIPIO": "PARACURU", "TOTAL_VOTOS_MUNICIPIO": 46, "MUNICIPIO": "Paracuru", "LATITUDE": -3.4161, "LONGITUDE": -39.0287 }, "geometry": { "type": "Point", "coordinates": [ -39.0287, -3.4161 ] } },
{ "type": "Feature", "properties": { "NR_VOTAVEL": 16111, "NM_VOTAVEL": "VOTOS TESTE", "NM_MUNICIPIO": "PARAIPABA", "TOTAL_VOTOS_MUNICIPIO": 357, "MUNICIPIO": "Paraipaba", "LATITUDE": -3.4383, "LONGITUDE": -39.1479 }, "geometry": { "type": "Point", "coordinates": [ -39.1479, -3.4383 ] } },
{ "type": "Feature", "properties": { "NR_VOTAVEL": 16111, "NM_VOTAVEL": "VOTOS TESTE", "NM_MUNICIPIO": "PARAMBU", "TOTAL_VOTOS_MUNICIPIO": 109, "MUNICIPIO": "Parambu", "LATITUDE": -6.2113, "LONGITUDE": -40.6979 }, "geometry": { "type": "Point", "coordinates": [ -40.6979, -6.2113 ] } },
{ "type": "Feature", "properties": { "NR_VOTAVEL": 16111, "NM_VOTAVEL": "VOTOS TESTE", "NM_MUNICIPIO": "PARAMOTI", "TOTAL_VOTOS_MUNICIPIO": 61, "MUNICIPIO": "Paramoti", "LATITUDE": -4.0971, "LONGITUDE": -39.2388 }, "geometry": { "type": "Point", "coordinates": [ -39.2388, -4.0971 ] } },
{ "type": "Feature", "properties": { "NR_VOTAVEL": 16111, "NM_VOTAVEL": "VOTOS TESTE", "NM_MUNICIPIO": "PEDRA BRANCA", "TOTAL_VOTOS_MUNICIPIO": 23, "MUNICIPIO": "Pedra Branca", "LATITUDE": -5.4543, "LONGITUDE": -39.7156 }, "geometry": { "type": "Point", "coordinates": [ -39.7156, -5.4543 ] } },
{ "type": "Feature", "properties": { "NR_VOTAVEL": 16111, "NM_VOTAVEL": "VOTOS TESTE", "NM_MUNICIPIO": "PENAFORTE", "TOTAL_VOTOS_MUNICIPIO": 3, "MUNICIPIO": "Penaforte", "LATITUDE": -7.8291, "LONGITUDE": -39.0752 }, "geometry": { "type": "Point", "coordinates": [ -39.0752, -7.8291 ] } },
{ "type": "Feature", "properties": { "NR_VOTAVEL": 16111, "NM_VOTAVEL": "VOTOS TESTE", "NM_MUNICIPIO": "PENTECOSTE", "TOTAL_VOTOS_MUNICIPIO": 12, "MUNICIPIO": "Pentecoste", "LATITUDE": -3.7926, "LONGITUDE": -39.2732 }, "geometry": { "type": "Point", "coordinates": [ -39.2732, -3.7926 ] } },
{ "type": "Feature", "properties": { "NR_VOTAVEL": 16111, "NM_VOTAVEL": "VOTOS TESTE", "NM_MUNICIPIO": "PEREIRO", "TOTAL_VOTOS_MUNICIPIO": 18, "MUNICIPIO": "Pereiro", "LATITUDE": -6.0458, "LONGITUDE": -38.4606 }, "geometry": { "type": "Point", "coordinates": [ -38.4606, -6.0458 ] } },
{ "type": "Feature", "properties": { "NR_VOTAVEL": 16111, "NM_VOTAVEL": "VOTOS TESTE", "NM_MUNICIPIO": "PINDORETAMA", "TOTAL_VOTOS_MUNICIPIO": 198, "MUNICIPIO": "Pindoretama", "LATITUDE": -4.0269, "LONGITUDE": -38.3065 }, "geometry": { "type": "Point", "coordinates": [ -38.3065, -4.0269 ] } },
{ "type": "Feature", "properties": { "NR_VOTAVEL": 16111, "NM_VOTAVEL": "VOTOS TESTE", "NM_MUNICIPIO": "PIQUET CARNEIRO", "TOTAL_VOTOS_MUNICIPIO": 47, "MUNICIPIO": "Piquet Carneiro", "LATITUDE": -5.8076, "LONGITUDE": -39.4172 }, "geometry": { "type": "Point", "coordinates": [ -39.4172, -5.8076 ] } },
{ "type": "Feature", "properties": { "NR_VOTAVEL": 16111, "NM_VOTAVEL": "VOTOS TESTE", "NM_MUNICIPIO": "PIRES FERREIRA", "TOTAL_VOTOS_MUNICIPIO": 9, "MUNICIPIO": "Pires Ferreira", "LATITUDE": -4.2445, "LONGITUDE": -40.6465 }, "geometry": { "type": "Point", "coordinates": [ -40.6465, -4.2445 ] } },
{ "type": "Feature", "properties": { "NR_VOTAVEL": 16111, "NM_VOTAVEL": "VOTOS TESTE", "NM_MUNICIPIO": "PORANGA", "TOTAL_VOTOS_MUNICIPIO": 241, "MUNICIPIO": "Poranga", "LATITUDE": -4.7432, "LONGITUDE": -40.9256 }, "geometry": { "type": "Point", "coordinates": [ -40.9256, -4.7432 ] } },
{ "type": "Feature", "properties": { "NR_VOTAVEL": 16111, "NM_VOTAVEL": "VOTOS TESTE", "NM_MUNICIPIO": "PORTEIRAS", "TOTAL_VOTOS_MUNICIPIO": 99, "MUNICIPIO": "Porteiras", "LATITUDE": -7.5351, "LONGITUDE": -39.1175 }, "geometry": { "type": "Point", "coordinates": [ -39.1175, -7.5351 ] } },
{ "type": "Feature", "properties": { "NR_VOTAVEL": 16111, "NM_VOTAVEL": "VOTOS TESTE", "NM_MUNICIPIO": "POTENGI", "TOTAL_VOTOS_MUNICIPIO": 132, "MUNICIPIO": "Potengi", "LATITUDE": -7.0916, "LONGITUDE": -40.0271 }, "geometry": { "type": "Point", "coordinates": [ -40.0271, -7.0916 ] } },
{ "type": "Feature", "properties": { "NR_VOTAVEL": 16111, "NM_VOTAVEL": "VOTOS TESTE", "NM_MUNICIPIO": "POTIRETAMA", "TOTAL_VOTOS_MUNICIPIO": 1, "MUNICIPIO": "Potiretama", "LATITUDE": -5.7232, "LONGITUDE": -38.1561 }, "geometry": { "type": "Point", "coordinates": [ -38.1561, -5.7232 ] } },
{ "type": "Feature", "properties": { "NR_VOTAVEL": 16111, "NM_VOTAVEL": "VOTOS TESTE", "NM_MUNICIPIO": "QUITERIANÓPOLIS", "TOTAL_VOTOS_MUNICIPIO": 29, "MUNICIPIO": "Quiterianópolis", "LATITUDE": -5.8455, "LONGITUDE": -40.7036 }, "geometry": { "type": "Point", "coordinates": [ -40.7036, -5.8455 ] } },
{ "type": "Feature", "properties": { "NR_VOTAVEL": 16111, "NM_VOTAVEL": "VOTOS TESTE", "NM_MUNICIPIO": "QUIXADÁ", "TOTAL_VOTOS_MUNICIPIO": 27, "MUNICIPIO": "Quixadá", "LATITUDE": -4.9677, "LONGITUDE": -39.0144 }, "geometry": { "type": "Point", "coordinates": [ -39.0144, -4.9677 ] } },
{ "type": "Feature", "properties": { "NR_VOTAVEL": 16111, "NM_VOTAVEL": "VOTOS TESTE", "NM_MUNICIPIO": "QUIXELÔ", "TOTAL_VOTOS_MUNICIPIO": 4, "MUNICIPIO": "Quixelô", "LATITUDE": -6.2528, "LONGITUDE": -39.2011 }, "geometry": { "type": "Point", "coordinates": [ -39.2011, -6.2528 ] } },
{ "type": "Feature", "properties": { "NR_VOTAVEL": 16111, "NM_VOTAVEL": "VOTOS TESTE", "NM_MUNICIPIO": "QUIXERAMOBIM", "TOTAL_VOTOS_MUNICIPIO": 8, "MUNICIPIO": "Quixeramobim", "LATITUDE": -5.1929, "LONGITUDE": -39.2934 }, "geometry": { "type": "Point", "coordinates": [ -39.2934, -5.1929 ] } },
{ "type": "Feature", "properties": { "NR_VOTAVEL": 16111, "NM_VOTAVEL": "VOTOS TESTE", "NM_MUNICIPIO": "QUIXERÉ", "TOTAL_VOTOS_MUNICIPIO": 6, "MUNICIPIO": "Quixeré", "LATITUDE": -5.0711, "LONGITUDE": -37.9893 }, "geometry": { "type": "Point", "coordinates": [ -37.9893, -5.0711 ] } },
{ "type": "Feature", "properties": { "NR_VOTAVEL": 16111, "NM_VOTAVEL": "VOTOS TESTE", "NM_MUNICIPIO": "REDENÇÃO", "TOTAL_VOTOS_MUNICIPIO": 392, "MUNICIPIO": "Redenção", "LATITUDE": -4.2244, "LONGITUDE": -38.7303 }, "geometry": { "type": "Point", "coordinates": [ -38.7303, -4.2244 ] } },
{ "type": "Feature", "properties": { "NR_VOTAVEL": 16111, "NM_VOTAVEL": "VOTOS TESTE", "NM_MUNICIPIO": "RERIUTABA", "TOTAL_VOTOS_MUNICIPIO": 19, "MUNICIPIO": "Reriutaba", "LATITUDE": -4.1423, "LONGITUDE": -40.5822 }, "geometry": { "type": "Point", "coordinates": [ -40.5822, -4.1423 ] } },
{ "type": "Feature", "properties": { "NR_VOTAVEL": 16111, "NM_VOTAVEL": "VOTOS TESTE", "NM_MUNICIPIO": "RUSSAS", "TOTAL_VOTOS_MUNICIPIO": 54, "MUNICIPIO": "Russas", "LATITUDE": -4.9399, "LONGITUDE": -37.9738 }, "geometry": { "type": "Point", "coordinates": [ -37.9738, -4.9399 ] } },
{ "type": "Feature", "properties": { "NR_VOTAVEL": 16111, "NM_VOTAVEL": "VOTOS TESTE", "NM_MUNICIPIO": "SABOEIRO", "TOTAL_VOTOS_MUNICIPIO": 95, "MUNICIPIO": "Saboeiro", "LATITUDE": -6.5404, "LONGITUDE": -39.9069 }, "geometry": { "type": "Point", "coordinates": [ -39.9069, -6.5404 ] } },
{ "type": "Feature", "properties": { "NR_VOTAVEL": 16111, "NM_VOTAVEL": "VOTOS TESTE", "NM_MUNICIPIO": "SALITRE", "TOTAL_VOTOS_MUNICIPIO": 81, "MUNICIPIO": "Salitre", "LATITUDE": -7.2858, "LONGITUDE": -40.4575 }, "geometry": { "type": "Point", "coordinates": [ -40.4575, -7.2858 ] } },
{ "type": "Feature", "properties": { "NR_VOTAVEL": 16111, "NM_VOTAVEL": "VOTOS TESTE", "NM_MUNICIPIO": "SANTA QUITÉRIA", "TOTAL_VOTOS_MUNICIPIO": 2761, "MUNICIPIO": "Santa Quitéria", "LATITUDE": -4.3318, "LONGITUDE": -40.1569 }, "geometry": { "type": "Point", "coordinates": [ -40.1569, -4.3318 ] } },
{ "type": "Feature", "properties": { "NR_VOTAVEL": 16111, "NM_VOTAVEL": "VOTOS TESTE", "NM_MUNICIPIO": "SANTANA DO ACARAÚ", "TOTAL_VOTOS_MUNICIPIO": 7, "MUNICIPIO": "Santana do Acaraú", "LATITUDE": -3.4598, "LONGITUDE": -40.2106 }, "geometry": { "type": "Point", "coordinates": [ -40.2106, -3.4598 ] } },
{ "type": "Feature", "properties": { "NR_VOTAVEL": 16111, "NM_VOTAVEL": "VOTOS TESTE", "NM_MUNICIPIO": "SANTANA DO CARIRI", "TOTAL_VOTOS_MUNICIPIO": 13, "MUNICIPIO": "Santana do Cariri", "LATITUDE": -7.1865, "LONGITUDE": -39.7369 }, "geometry": { "type": "Point", "coordinates": [ -39.7369, -7.1865 ] } },
{ "type": "Feature", "properties": { "NR_VOTAVEL": 16111, "NM_VOTAVEL": "VOTOS TESTE", "NM_MUNICIPIO": "SENADOR POMPEU", "TOTAL_VOTOS_MUNICIPIO": 2, "MUNICIPIO": "Senador Pompeu", "LATITUDE": -5.5875, "LONGITUDE": -39.3731 }, "geometry": { "type": "Point", "coordinates": [ -39.3731, -5.5875 ] } },
{ "type": "Feature", "properties": { "NR_VOTAVEL": 16111, "NM_VOTAVEL": "VOTOS TESTE", "NM_MUNICIPIO": "SENADOR SÁ", "TOTAL_VOTOS_MUNICIPIO": 64, "MUNICIPIO": "Senador Sá", "LATITUDE": -3.3531, "LONGITUDE": -40.4644 }, "geometry": { "type": "Point", "coordinates": [ -40.4644, -3.3531 ] } },
{ "type": "Feature", "properties": { "NR_VOTAVEL": 16111, "NM_VOTAVEL": "VOTOS TESTE", "NM_MUNICIPIO": "SOBRAL", "TOTAL_VOTOS_MUNICIPIO": 172, "MUNICIPIO": "Sobral", "LATITUDE": -3.6873, "LONGITUDE": -40.3535 }, "geometry": { "type": "Point", "coordinates": [ -40.3535, -3.6873 ] } },
{ "type": "Feature", "properties": { "NR_VOTAVEL": 16111, "NM_VOTAVEL": "VOTOS TESTE", "NM_MUNICIPIO": "SOLONÓPOLE", "TOTAL_VOTOS_MUNICIPIO": 3, "MUNICIPIO": "Solonópole", "LATITUDE": -5.7312, "LONGITUDE": -39.0078 }, "geometry": { "type": "Point", "coordinates": [ -39.0078, -5.7312 ] } },
{ "type": "Feature", "properties": { "NR_VOTAVEL": 16111, "NM_VOTAVEL": "VOTOS TESTE", "NM_MUNICIPIO": "SÃO BENEDITO", "TOTAL_VOTOS_MUNICIPIO": 781, "MUNICIPIO": "São Benedito", "LATITUDE": -4.0465, "LONGITUDE": -40.8657 }, "geometry": { "type": "Point", "coordinates": [ -40.8657, -4.0465 ] } },
{ "type": "Feature", "properties": { "NR_VOTAVEL": 16111, "NM_VOTAVEL": "VOTOS TESTE", "NM_MUNICIPIO": "SÃO GONÇALO DO AMARANTE", "TOTAL_VOTOS_MUNICIPIO": 285, "MUNICIPIO": "São Gonçalo do Amarante", "LATITUDE": -3.6078, "LONGITUDE": -38.9685 }, "geometry": { "type": "Point", "coordinates": [ -38.9685, -3.6078 ] } },
{ "type": "Feature", "properties": { "NR_VOTAVEL": 16111, "NM_VOTAVEL": "VOTOS TESTE", "NM_MUNICIPIO": "SÃO JOÃO DO JAGUARIBE", "TOTAL_VOTOS_MUNICIPIO": 2, "MUNICIPIO": "São João do Jaguaribe", "LATITUDE": -5.2702, "LONGITUDE": -38.2727 }, "geometry": { "type": "Point", "coordinates": [ -38.2727, -5.2702 ] } },
{ "type": "Feature", "properties": { "NR_VOTAVEL": 16111, "NM_VOTAVEL": "VOTOS TESTE", "NM_MUNICIPIO": "SÃO LUÍS DO CURU", "TOTAL_VOTOS_MUNICIPIO": 9, "MUNICIPIO": "São Luís do Curu", "LATITUDE": -3.6726, "LONGITUDE": -39.2408 }, "geometry": { "type": "Point", "coordinates": [ -39.2408, -3.6726 ] } },
{ "type": "Feature", "properties": { "NR_VOTAVEL": 16111, "NM_VOTAVEL": "VOTOS TESTE", "NM_MUNICIPIO": "TABULEIRO DO NORTE", "TOTAL_VOTOS_MUNICIPIO": 36, "MUNICIPIO": "Tabuleiro do Norte", "LATITUDE": -5.2457, "LONGITUDE": -38.1309 }, "geometry": { "type": "Point", "coordinates": [ -38.1309, -5.2457 ] } },
{ "type": "Feature", "properties": { "NR_VOTAVEL": 16111, "NM_VOTAVEL": "VOTOS TESTE", "NM_MUNICIPIO": "TAMBORIL", "TOTAL_VOTOS_MUNICIPIO": 34, "MUNICIPIO": "Tamboril", "LATITUDE": -4.8332, "LONGITUDE": -40.3213 }, "geometry": { "type": "Point", "coordinates": [ -40.3213, -4.8332 ] } },
{ "type": "Feature", "properties": { "NR_VOTAVEL": 16111, "NM_VOTAVEL": "VOTOS TESTE", "NM_MUNICIPIO": "TARRAFAS", "TOTAL_VOTOS_MUNICIPIO": 23, "MUNICIPIO": "Tarrafas", "LATITUDE": -6.6828, "LONGITUDE": -39.7592 }, "geometry": { "type": "Point", "coordinates": [ -39.7592, -6.6828 ] } },
{ "type": "Feature", "properties": { "NR_VOTAVEL": 16111, "NM_VOTAVEL": "VOTOS TESTE", "NM_MUNICIPIO": "TAUÁ", "TOTAL_VOTOS_MUNICIPIO": 831, "MUNICIPIO": "Tauá", "LATITUDE": -6.0059, "LONGITUDE": -40.2889 }, "geometry": { "type": "Point", "coordinates": [ -40.2889, -6.0059 ] } },
{ "type": "Feature", "properties": { "NR_VOTAVEL": 16111, "NM_VOTAVEL": "VOTOS TESTE", "NM_MUNICIPIO": "TEJUÇUOCA", "TOTAL_VOTOS_MUNICIPIO": 4, "MUNICIPIO": "Tejuçuoca", "LATITUDE": -3.9893, "LONGITUDE": -39.5788 }, "geometry": { "type": "Point", "coordinates": [ -39.5788, -3.9893 ] } },
{ "type": "Feature", "properties": { "NR_VOTAVEL": 16111, "NM_VOTAVEL": "VOTOS TESTE", "NM_MUNICIPIO": "TIANGUÁ", "TOTAL_VOTOS_MUNICIPIO": 770, "MUNICIPIO": "Tianguá", "LATITUDE": -3.7287, "LONGITUDE": -40.9916 }, "geometry": { "type": "Point", "coordinates": [ -40.9916, -3.7287 ] } },
{ "type": "Feature", "properties": { "NR_VOTAVEL": 16111, "NM_VOTAVEL": "VOTOS TESTE", "NM_MUNICIPIO": "TRAIRI", "TOTAL_VOTOS_MUNICIPIO": 5, "MUNICIPIO": "Trairi", "LATITUDE": -3.2741, "LONGITUDE": -39.2674 }, "geometry": { "type": "Point", "coordinates": [ -39.2674, -3.2741 ] } },
{ "type": "Feature", "properties": { "NR_VOTAVEL": 16111, "NM_VOTAVEL": "VOTOS TESTE", "NM_MUNICIPIO": "TURURU", "TOTAL_VOTOS_MUNICIPIO": 6, "MUNICIPIO": "Tururu", "LATITUDE": -3.5991, "LONGITUDE": -39.4359 }, "geometry": { "type": "Point", "coordinates": [ -39.4359, -3.5991 ] } },
{ "type": "Feature", "properties": { "NR_VOTAVEL": 16111, "NM_VOTAVEL": "VOTOS TESTE", "NM_MUNICIPIO": "UBAJARA", "TOTAL_VOTOS_MUNICIPIO": 96, "MUNICIPIO": "Ubajara", "LATITUDE": -3.8555, "LONGITUDE": -40.9209 }, "geometry": { "type": "Point", "coordinates": [ -40.9209, -3.8555 ] } },
{ "type": "Feature", "properties": { "NR_VOTAVEL": 16111, "NM_VOTAVEL": "VOTOS TESTE", "NM_MUNICIPIO": "UMARI", "TOTAL_VOTOS_MUNICIPIO": 15, "MUNICIPIO": "Umari", "LATITUDE": -6.6445, "LONGITUDE": -38.7003 }, "geometry": { "type": "Point", "coordinates": [ -38.7003, -6.6445 ] } },
{ "type": "Feature", "properties": { "NR_VOTAVEL": 16111, "NM_VOTAVEL": "VOTOS TESTE", "NM_MUNICIPIO": "UMIRIM", "TOTAL_VOTOS_MUNICIPIO": 58, "MUNICIPIO": "Umirim", "LATITUDE": -3.6779, "LONGITUDE": -39.3489 }, "geometry": { "type": "Point", "coordinates": [ -39.3489, -3.6779 ] } },
{ "type": "Feature", "properties": { "NR_VOTAVEL": 16111, "NM_VOTAVEL": "VOTOS TESTE", "NM_MUNICIPIO": "URUBURETAMA", "TOTAL_VOTOS_MUNICIPIO": 1, "MUNICIPIO": "Uruburetama", "LATITUDE": -3.6255, "LONGITUDE": -39.5077 }, "geometry": { "type": "Point", "coordinates": [ -39.5077, -3.6255 ] } },
{ "type": "Feature", "properties": { "NR_VOTAVEL": 16111, "NM_VOTAVEL": "VOTOS TESTE", "NM_MUNICIPIO": "URUOCA", "TOTAL_VOTOS_MUNICIPIO": 25, "MUNICIPIO": "Uruoca", "LATITUDE": -3.3165, "LONGITUDE": -40.5609 }, "geometry": { "type": "Point", "coordinates": [ -40.5609, -3.3165 ] } },
{ "type": "Feature", "properties": { "NR_VOTAVEL": 16111, "NM_VOTAVEL": "VOTOS TESTE", "NM_MUNICIPIO": "VARJOTA", "TOTAL_VOTOS_MUNICIPIO": 4, "MUNICIPIO": "Varjota", "LATITUDE": -4.1917, "LONGITUDE": -40.4783 }, "geometry": { "type": "Point", "coordinates": [ -40.4783, -4.1917 ] } },
{ "type": "Feature", "properties": { "NR_VOTAVEL": 16111, "NM_VOTAVEL": "VOTOS TESTE", "NM_MUNICIPIO": "VIÇOSA DO CEARÁ", "TOTAL_VOTOS_MUNICIPIO": 5, "MUNICIPIO": "Viçosa do Ceará", "LATITUDE": -3.5649, "LONGITUDE": -41.0919 }, "geometry": { "type": "Point", "coordinates": [ -41.0919, -3.5649 ] } },
{ "type": "Feature", "properties": { "NR_VOTAVEL": 16111, "NM_VOTAVEL": "VOTOS TESTE", "NM_MUNICIPIO": "VÁRZEA ALEGRE", "TOTAL_VOTOS_MUNICIPIO": 3, "MUNICIPIO": "Várzea Alegre", "LATITUDE": -6.7916, "LONGITUDE": -39.2971 }, "geometry": { "type": "Point", "coordinates": [ -39.2971, -6.7916 ] } }
]
}
